[
  {
    "name": "Eiffel Tower",
    "lat": 48.858370,
    "lng": 2.294481,
    "description": "Paris, France"
  },
  {
    "name": "Statue of Liberty",
    "lat": 40.689247,
    "lng": -74.044502,
    "description": "New York, USA"
  },
  {
    "name": "Golden Gate Bridge",
    "lat": 37.819929,
    "lng": -122.478255,
    "description": "San Francisco, USA"
  },
  {
    "name": "Sydney Opera House",
    "lat": -33.856784,
    "lng": 151.215297,
    "description": "Sydney, Australia"
  },
  {
    "name": "Christ the Redeemer",
    "lat": -22.951916,
    "lng": -43.210487,
    "description": "Rio de Janeiro, Brazil"
  }
]
